stop_id,direction_id,stop_name,station_name,station_descriptive_name,map_id,ada,red,blue,g,brn,p,pexp,y,pnk,o,location,:@computed_region_awaf_s7ux,:@computed_region_6mkv_f3dw,:@computed_region_vrxf_vc4k,:@computed_region_bdys_3d7i,:@computed_region_43wa_7qmu
30162,W,18th (54th/Cermak-bound),18th,18th (Pink Line),40830,True,False,False,False,False,False,False,False,True,False,"{'latitude': '41.857908', 'longitude': '-87.669147', 'human_address': '{""address"": """", ""city"": """", ""state"": """", ""zip"": """"}'}",8,14920,33,343,26
30161,E,18th (Loop-bound),18th,18th (Pink Line),40830,True,False,False,False,False,False,False,False,True,False,"{'latitude': '41.857908', 'longitude': '-87.669147', 'human_address': '{""address"": """", ""city"": """", ""state"": """", ""zip"": """"}'}",8,14920,33,343,26
30022,N,35th/Archer (Loop-bound),35th/Archer,35th/Archer (Orange Line),40120,True,False,False,False,False,False,False,False,False,True,"{'latitude': '41.829353', 'longitude': '-87.680622', 'human_address': '{""address"": """", ""city"": """", ""state"": """", ""zip"": """"}'}",26,14924,56,719,1
30023,S,35th/Archer (Midway-bound),35th/Archer,35th/Archer (Orange Line),40120,True,False,False,False,False,False,False,False,False,True,"{'latitude': '41.829353', 'longitude': '-87.680622', 'human_address': '{""address"": """", ""city"": """", ""state"": """", ""zip"": """"}'}",26,14924,56,719,1
30214,S,35-Bronzeville-IIT (63rd-bound),35th-Bronzeville-IIT,35th-Bronzeville-IIT (Green Line),41120,True,False,False,True,False,False,False,False,False,False,"{'latitude': '41.831677', 'longitude': '-87.625826', 'human_address': '{""address"": """", ""city"": """", ""state"": """", ""zip"": """"}'}",12,21194,1,25,9
30213,N,35-Bronzeville-IIT (Harlem-bound),35th-Bronzeville-IIT,35th-Bronzeville-IIT (Green Line),41120,True,False,False,True,False,False,False,False,False,False,"{'latitude': '41.831677', 'longitude': '-87.625826', 'human_address': '{""address"": """", ""city"": """", ""state"": """", ""zip"": """"}'}",12,21194,1,25,9
30245,N,43rd (Harlem-bound),43rd,43rd (Green Line),41270,True,False,False,True,False,False,False,False,False,False,"{'latitude': '41.816462', 'longitude': '-87.619021', 'human_address': '{""address"": """", ""city"": """", ""state"": """", ""zip"": """"}'}",12,4301,4,162,9
30246,S,43rd (63rd-bound),43rd,43rd (Green Line),41270,True,False,False,True,False,False,False,False,False,False,"{'latitude': '41.816462', 'longitude': '-87.619021', 'human_address': '{""address"": """", ""city"": """", ""state"": """", ""zip"": """"}'}",12,4301,4,162,9
30237,N,47th (Howard-bound),47th,47th (Red Line),41230,True,True,False,False,False,False,False,False,False,False,"{'latitude': '41.810318', 'longitude': '-87.63094', 'human_address': '{""address"": """", ""city"": """", ""state"": """", ""zip"": """"}'}",12,14924,3,189,9
30209,N,47th (Harlem-bound),47th,47th (Green Line),41080,True,False,False,True,False,False,False,False,False,False,"{'latitude': '41.809209', 'longitude': '-87.618826', 'human_address': '{""address"": """", ""city"": """", ""state"": """", ""zip"": """"}'}",12,21192,4,448,9
30238,S,47th (95th-bound),47th,47th (Red Line),41230,True,True,False,False,False,False,False,False,False,False,"{'latitude': '41.810318', 'longitude': '-87.63094', 'human_address': '{""address"": """", ""city"": """", ""state"": """", ""zip"": """"}'}",12,14924,3,189,9
30210,S,47th (63rd-bound),47th,47th (Green Line),41080,True,False,False,True,False,False,False,False,False,False,"{'latitude': '41.809209', 'longitude': '-87.618826', 'human_address': '{""address"": """", ""city"": """", ""state"": """", ""zip"": """"}'}",12,21192,4,448,9
30024,N,51st (Harlem-bound),51st,51st (Green Line),40130,True,False,False,True,False,False,False,False,False,False,"{'latitude': '41.80209', 'longitude': '-87.618487', 'human_address': '{""address"": """", ""city"": """", ""state"": """", ""zip"": """"}'}",12,21192,4,449,9
30025,S,51st (63rd-bound),51st,51st (Green Line),40130,True,False,False,True,False,False,False,False,False,False,"{'latitude': '41.80209', 'longitude': '-87.618487', 'human_address': '{""address"": """", ""city"": """", ""state"": """", ""zip"": """"}'}",12,21192,4,449,9
30114,W,54th/Cermak (Terminal arrival),54th/Cermak,54th/Cermak (Pink Line),40580,True,False,False,False,False,False,False,False,True,False,"{'latitude': '41.85177331', 'longitude': '-87.75669201', 'human_address': '{""address"": """", ""city"": """", ""state"": """", ""zip"": """"}'}",,4458,,,
30113,E,54th/Cermak (Loop-bound),54th/Cermak,54th/Cermak (Pink Line),40580,True,False,False,False,False,False,False,False,True,False,"{'latitude': '41.85177331', 'longitude': '-87.75669201', 'human_address': '{""address"": """", ""city"": """", ""state"": """", ""zip"": """"}'}",,4458,,,
30177,N,63rd (Howard-bound),63rd,63rd (Red Line),40910,True,True,False,False,False,False,False,False,False,False,"{'latitude': '41.780536', 'longitude': '-87.630952', 'human_address': '{""address"": """", ""city"": """", ""state"": """", ""zip"": """"}'}",53,21559,66,166,4
30178,S,63rd (95th-bound),63rd,63rd (Red Line),40910,True,True,False,False,False,False,False,False,False,False,"{'latitude': '41.780536', 'longitude': '-87.630952', 'human_address': '{""address"": """", ""city"": """", ""state"": """", ""zip"": """"}'}",53,21559,66,166,4
30192,S,69th (95th-bound),69th,69th (Red Line),40990,True,True,False,False,False,False,False,False,False,False,"{'latitude': '41.768367', 'longitude': '-87.625724', 'human_address': '{""address"": """", ""city"": """", ""state"": """", ""zip"": """"}'}",31,21559,67,513,32
30191,N,69th (Howard-bound),69th,69th (Red Line),40990,True,True,False,False,False,False,False,False,False,False,"{'latitude': '41.768367', 'longitude': '-87.625724', 'human_address': '{""address"": """", ""city"": """", ""state"": """", ""zip"": """"}'}",31,21559,67,513,32
30047,S,79th (95th-bound),79th,79th (Red Line),40240,True,True,False,False,False,False,False,False,False,False,"{'latitude': '41.750419', 'longitude': '-87.625112', 'human_address': '{""address"": """", ""city"": """", ""state"": """", ""zip"": """"}'}",31,21554,40,1,32
30046,N,79th (Howard-bound),79th,79th (Red Line),40240,True,True,False,False,False,False,False,False,False,False,"{'latitude': '41.750419', 'longitude': '-87.625112', 'human_address': '{""address"": """", ""city"": """", ""state"": """", ""zip"": """"}'}",31,21554,40,1,32
30276,S,87th (95th-bound),87th,87th (Red Line),41430,True,True,False,False,False,False,False,False,False,False,"{'latitude': '41.735372', 'longitude': '-87.624717', 'human_address': '{""address"": """", ""city"": """", ""state"": """", ""zip"": """"}'}",18,21554,40,1,13
30275,N,87th (Howard-bound),87th,87th (Red Line),41430,True,True,False,False,False,False,False,False,False,False,"{'latitude': '41.735372', 'longitude': '-87.624717', 'human_address': '{""address"": """", ""city"": """", ""state"": """", ""zip"": """"}'}",18,21554,40,1,13
30088,N,95th/Dan Ryan (Howard-bound),95th/Dan Ryan,95th/Dan Ryan (Red Line),40450,True,True,False,False,False,False,False,False,False,False,"{'latitude': '41.722377', 'longitude': '-87.624342', 'human_address': '{""address"": """", ""city"": """", ""state"": """", ""zip"": """"}'}",18,21861,45,187,13
30089,S,95th/Dan Ryan (95th-bound),95th/Dan Ryan,95th/Dan Ryan (Red Line),40450,True,True,False,False,False,False,False,False,False,False,"{'latitude': '41.722377', 'longitude': '-87.624342', 'human_address': '{""address"": """", ""city"": """", ""state"": """", ""zip"": """"}'}",18,21861,45,187,13
30132,S,Adams/Wabash (Inner Loop),Adams/Wabash,"Adams/Wabash (Brown, Green, Orange, Pink & Purple lines)",40680,False,False,False,True,False,False,True,False,True,True,"{'latitude': '41.879507', 'longitude': '-87.626037', 'human_address': '{""address"": """", ""city"": """", ""state"": """", ""zip"": """"}'}",22,14912,38,367,36
30131,N,Adams/Wabash (Outer Loop),Adams/Wabash,"Adams/Wabash (Brown, Green, Orange, Pink & Purple lines)",40680,False,False,False,True,True,False,False,False,False,False,"{'latitude': '41.879507', 'longitude': '-87.626037', 'human_address': '{""address"": """", ""city"": """", ""state"": """", ""zip"": """"}'}",22,14912,38,367,36
30239,N,Addison (O'Hare-bound),Addison,Addison (Blue Line),41240,True,False,True,False,False,False,False,False,False,False,"{'latitude': '41.94738', 'longitude': '-87.71906', 'human_address': '{""address"": """", ""city"": """", ""state"": """", ""zip"": """"}'}",15,21538,16,326,50
30240,S,Addison (Forest Pk-bound),Addison,Addison (Blue Line),41240,True,False,True,False,False,False,False,False,False,False,"{'latitude': '41.94738', 'longitude': '-87.71906', 'human_address': '{""address"": """", ""city"": """", ""state"": """", ""zip"": """"}'}",15,21538,16,326,50
30274,S,Addison (95th-bound),Addison,Addison (Red Line),41420,True,True,False,False,False,False,False,False,False,False,"{'latitude': '41.947428', 'longitude': '-87.653626', 'human_address': '{""address"": """", ""city"": """", ""state"": """", ""zip"": """"}'}",38,21186,57,727,25
30273,N,Addison (Howard-bound),Addison,Addison (Red Line),41420,True,True,False,False,False,False,False,False,False,False,"{'latitude': '41.947428', 'longitude': '-87.653626', 'human_address': '{""address"": """", ""city"": """", ""state"": """", ""zip"": """"}'}",38,21186,57,727,25
30278,S,Addison (Loop-bound),Addison,Addison (Brown Line),41440,True,False,False,False,True,False,False,False,False,False,"{'latitude': '41.947028', 'longitude': '-87.674642', 'human_address': '{""address"": """", ""city"": """", ""state"": """", ""zip"": """"}'}",13,21186,46,644,18
30277,N,Addison (Kimball-bound),Addison,Addison (Brown Line),41440,True,False,False,False,True,False,False,False,False,False,"{'latitude': '41.947028', 'longitude': '-87.674642', 'human_address': '{""address"": """", ""city"": """", ""state"": """", ""zip"": """"}'}",13,21186,46,644,18
30229,N,Argyle (Howard-bound),Argyle,Argyle (Red Line),41200,False,True,False,False,False,False,False,False,False,False,"{'latitude': '41.973453', 'longitude': '-87.65853', 'human_address': '{""address"": """", ""city"": """", ""state"": """", ""zip"": """"}'}",40,22616,31,634,16
30230,S,Argyle (95th-bound),Argyle,Argyle (Red Line),41200,False,True,False,False,False,False,False,False,False,False,"{'latitude': '41.973453', 'longitude': '-87.65853', 'human_address': '{""address"": """", ""city"": """", ""state"": """", ""zip"": """"}'}",40,22616,31,634,16
30128,S,Armitage (Loop-bound),Armitage,Armitage (Brown & Purple lines),40660,True,False,False,False,True,False,True,False,False,False,"{'latitude': '41.918217', 'longitude': '-87.652644', 'human_address': '{""address"": """", ""city"": """", ""state"": """", ""zip"": """"}'}",51,21190,68,744,34
30127,N,Armitage (Kimball-Linden-bound),Armitage,Armitage (Brown & Purple lines),40660,True,False,False,False,True,False,True,False,False,False,"{'latitude': '41.918217', 'longitude': '-87.652644', 'human_address': '{""address"": """", ""city"": """", ""state"": """", ""zip"": """"}'}",51,21190,68,744,34
30032,E,Ashland (Loop-63rd-bound),Ashland,Ashland (Green & Pink lines),40170,True,False,False,True,False,False,False,False,True,False,"{'latitude': '41.885269', 'longitude': '-87.666969', 'human_address': '{""address"": """", ""city"": """", ""state"": """", ""zip"": """"}'}",41,14917,29,579,46
30206,S,Ashland (Midway-bound),Ashland,Ashland (Orange Line),41060,True,False,False,False,False,False,False,False,False,True,"{'latitude': '41.839234', 'longitude': '-87.665317', 'human_address': '{""address"": """", ""city"": """", ""state"": """", ""zip"": """"}'}",26,14920,33,126,26
30033,W,Ashland (Harlem-54th/Cermak-bound),Ashland,Ashland (Green & Pink lines),40170,True,False,False,True,False,False,False,False,True,False,"{'latitude': '41.885269', 'longitude': '-87.666969', 'human_address': '{""address"": """", ""city"": """", ""state"": """", ""zip"": """"}'}",41,14917,29,579,46
30205,N,Ashland (Loop-bound),Ashland,Ashland (Orange Line),41060,True,False,False,False,False,False,False,False,False,True,"{'latitude': '41.839234', 'longitude': '-87.665317', 'human_address': '{""address"": """", ""city"": """", ""state"": """", ""zip"": """"}'}",26,14920,33,126,26
30057,W,Ashland/63rd (Terminal arrival),Ashland/63rd,Ashland/63rd (Green Line),40290,True,False,False,True,False,False,False,False,False,False,"{'latitude': '41.77886', 'longitude': '-87.663766', 'human_address': '{""address"": """", ""city"": """", ""state"": """", ""zip"": """"}'}",19,22257,65,279,2
30056,E,Ashland/63rd (Harlem-bound),Ashland/63rd,Ashland/63rd (Green Line),40290,True,False,False,True,False,False,False,False,False,False,"{'latitude': '41.77886', 'longitude': '-87.663766', 'human_address': '{""address"": """", ""city"": """", ""state"": """", ""zip"": """"}'}",19,22257,65,279,2
30243,E,Austin (63rd-bound),Austin,Austin (Green Line),41260,False,False,False,True,False,False,False,False,False,False,"{'latitude': '41.887293', 'longitude': '-87.774135', 'human_address': '{""address"": """", ""city"": """", ""state"": """", ""zip"": """"}'}",52,22216,26,672,7
30001,E,Austin (O'Hare-bound),Austin,Austin (Blue Line),40010,False,False,True,False,False,False,False,False,False,False,"{'latitude': '41.870851', 'longitude': '-87.776812', 'human_address': '{""address"": """", ""city"": """", ""state"": """", ""zip"": """"}'}",,26618,,,
30002,W,Austin (Forest Pk-bound),Austin,Austin (Blue Line),40010,False,False,True,False,False,False,False,False,False,False,"{'latitude': '41.870851', 'longitude': '-87.776812', 'human_address': '{""address"": """", ""city"": """", ""state"": """", ""zip"": """"}'}",,26618,,,
30244,W,Austin (Harlem-bound),Austin,Austin (Green Line),41260,False,False,False,True,False,False,False,False,False,False,"{'latitude': '41.887293', 'longitude': '-87.774135', 'human_address': '{""address"": """", ""city"": """", ""state"": """", ""zip"": """"}'}",52,22216,26,672,7
30256,S,Belmont (95th-bound),Belmont,"Belmont (Red, Brown & Purple lines)",41320,True,True,False,False,False,False,False,False,False,False,"{'latitude': '41.939751', 'longitude': '-87.65338', 'human_address': '{""address"": """", ""city"": """", ""state"": """", ""zip"": """"}'}",38,4449,57,681,25
30257,N,Belmont (Kimball-Linden-bound),Belmont,"Belmont (Red, Brown & Purple lines)",41320,True,False,False,False,True,False,True,False,False,False,"{'latitude': '41.939751', 'longitude': '-87.65338', 'human_address': '{""address"": """", ""city"": """", ""state"": """", ""zip"": """"}'}",38,4449,57,681,25
30012,N,Belmont (O'Hare Branch) (O'Hare-bound),Belmont,Belmont (Blue Line),40060,False,False,True,False,False,False,False,False,False,False,"{'latitude': '41.938132', 'longitude': '-87.712359', 'human_address': '{""address"": """", ""city"": """", ""state"": """", ""zip"": """"}'}",15,21538,22,216,12
30013,S,Belmont (O'Hare Branch) (Forest Pk-bound),Belmont,Belmont (Blue Line),40060,False,False,True,False,False,False,False,False,False,False,"{'latitude': '41.938132', 'longitude': '-87.712359', 'human_address': '{""address"": """", ""city"": """", ""state"": """", ""zip"": """"}'}",15,21538,22,216,12
30258,S,Belmont (Loop-bound),Belmont,"Belmont (Red, Brown & Purple lines)",41320,True,False,False,False,True,False,True,False,False,False,"{'latitude': '41.939751', 'longitude': '-87.65338', 'human_address': '{""address"": """", ""city"": """", ""state"": """", ""zip"": """"}'}",38,4449,57,681,25
30255,N,Belmont (Howard-bound),Belmont,"Belmont (Red, Brown & Purple lines)",41320,True,True,False,False,False,False,False,False,False,False,"{'latitude': '41.939751', 'longitude': '-87.65338', 'human_address': '{""address"": """", ""city"": """", ""state"": """", ""zip"": """"}'}",38,4449,57,681,25
30067,S,Berwyn (95th-bound),Berwyn,Berwyn (Red Line),40340,False,True,False,False,False,False,False,False,False,False,"{'latitude': '41.977984', 'longitude': '-87.658668', 'human_address': '{""address"": """", ""city"": """", ""state"": """", ""zip"": """"}'}",40,22616,76,160,16
30066,N,Berwyn (Howard-bound),Berwyn,Berwyn (Red Line),40340,False,True,False,False,False,False,False,False,False,False,"{'latitude': '41.977984', 'longitude': '-87.658668', 'human_address': '{""address"": """", ""city"": """", ""state"": """", ""zip"": """"}'}",40,22616,76,160,16
30267,N,Bryn Mawr (Howard-bound),Bryn Mawr,Bryn Mawr (Red Line),41380,False,True,False,False,False,False,False,False,False,False,"{'latitude': '41.983504', 'longitude': '-87.65884', 'human_address': '{""address"": """", ""city"": """", ""state"": """", ""zip"": """"}'}",40,22616,76,145,16
30268,S,Bryn Mawr (95th-bound),Bryn Mawr,Bryn Mawr (Red Line),41380,False,True,False,False,False,False,False,False,False,False,"{'latitude': '41.983504', 'longitude': '-87.65884', 'human_address': '{""address"": """", ""city"": """", ""state"": """", ""zip"": """"}'}",40,22616,76,145,16
30266,W,California (Harlem-bound),California,California (Green Line),41360,True,False,False,True,False,False,False,False,False,False,"{'latitude': '41.88422', 'longitude': '-87.696234', 'human_address': '{""address"": """", ""city"": """", ""state"": """", ""zip"": """"}'}",41,21184,28,50,46
30265,E,California (63rd-bound),California,California (Green Line),41360,True,False,False,True,False,False,False,False,False,False,"{'latitude': '41.88422', 'longitude': '-87.696234', 'human_address': '{""address"": """", ""city"": """", ""state"": """", ""zip"": """"}'}",41,21184,28,50,46
30111,N,California (O'Hare-bound),California,California (Blue Line),40570,False,False,True,False,False,False,False,False,False,False,"{'latitude': '41.921939', 'longitude': '-87.69689', 'human_address': '{""address"": """", ""city"": """", ""state"": """", ""zip"": """"}'}",24,22535,23,294,41
30086,E,California (Loop-bound),California,California (Pink Line),40440,True,False,False,False,False,False,False,False,True,False,"{'latitude': '41.854109', 'longitude': '-87.694774', 'human_address': '{""address"": """", ""city"": """", ""state"": """", ""zip"": """"}'}",11,14920,32,203,1
30112,S,California (Forest Pk-bound),California,California  (Blue Line),40570,False,False,True,False,False,False,False,False,False,False,"{'latitude': '41.921939', 'longitude': '-87.69689', 'human_address': '{""address"": """", ""city"": """", ""state"": """", ""zip"": """"}'}",24,22535,23,294,41
30087,W,California (54th/Cermak-bound),California,California (Pink Line),40440,True,False,False,False,False,False,False,False,True,False,"{'latitude': '41.854109', 'longitude': '-87.694774', 'human_address': '{""address"": """", ""city"": """", ""state"": """", ""zip"": """"}'}",11,14920,32,203,1
30054,E,Central (63rd-bound),Central,Central (Green Line),40280,True,False,False,True,False,False,False,False,False,False,"{'latitude': '41.887389', 'longitude': '-87.76565', 'human_address': '{""address"": """", ""city"": """", ""state"": """", ""zip"": """"}'}",52,22216,26,672,7
30055,W,Central (Harlem-bound),Central,Central (Green Line),40280,True,False,False,True,False,False,False,False,False,False,"{'latitude': '41.887389', 'longitude': '-87.76565', 'human_address': '{""address"": """", ""city"": """", ""state"": """", ""zip"": """"}'}",52,22216,26,672,7
30241,N,Central (Linden-bound),Central,Central (Purple Line),41250,False,False,False,False,False,True,True,False,False,False,"{'latitude': '42.063987', 'longitude': '-87.685617', 'human_address': '{""address"": """", ""city"": """", ""state"": """", ""zip"": """"}'}",,26293,,,
30242,S,Central (Howard-Loop-bound),Central,Central (Purple Line),41250,False,False,False,False,False,True,True,False,False,False,"{'latitude': '42.063987', 'longitude': '-87.685617', 'human_address': '{""address"": """", ""city"": """", ""state"": """", ""zip"": """"}'}",,26293,,,
30151,E,Central Park (Loop-bound),Central Park,Central Park (Pink Line),40780,True,False,False,False,False,False,False,False,True,False,"{'latitude': '41.853839', 'longitude': '-87.714842', 'human_address': '{""address"": """", ""city"": """", ""state"": """", ""zip"": """"}'}",36,21569,30,157,14
30152,W,Central Park (54th/Cermak-bound),Central Park,Central Park (Pink Line),40780,True,False,False,False,False,False,False,False,True,False,"{'latitude': '41.853839', 'longitude': '-87.714842', 'human_address': '{""address"": """", ""city"": """", ""state"": """", ""zip"": """"}'}",36,21569,30,157,14
30193,N,Cermak-Chinatown (Howard-bound),Cermak-Chinatown,Cermak-Chinatown (Red Line),41000,True,True,False,False,False,False,False,False,False,False,"{'latitude': '41.853206', 'longitude': '-87.630968', 'human_address': '{""address"": """", ""city"": """", ""state"": """", ""zip"": """"}'}",8,21194,35,3,26
30194,S,Cermak-Chinatown (95th-bound),Cermak-Chinatown,Cermak-Chinatown (Red Line),41000,True,True,False,False,False,False,False,False,False,False,"{'latitude': '41.853206', 'longitude': '-87.630968', 'human_address': '{""address"": """", ""city"": """", ""state"": """", ""zip"": """"}'}",8,21194,35,3,26
30381,N,Cermak-McCormick Place (Harlem-bound),Cermak-McCormick Place,Cermak-McCormick Place (Green Line),41690,True,False,False,True,False,False,False,False,False,False,"{'latitude': '41.853115', 'longitude': '-87.626402', 'human_address': '{""address"": """", ""city"": """", ""state"": """", ""zip"": """"}'}",12,21194,34,374,9
30382,S,Cermak-McCormick Place (63rd-bound),Cermak-McCormick Place,Cermak-McCormick Place (Green Line),41690,True,False,False,True,False,False,False,False,False,False,"{'latitude': '41.853115', 'longitude': '-87.626402', 'human_address': '{""address"": """", ""city"": """", ""state"": """", ""zip"": """"}'}",12,21194,34,374,9
30279,N,Chicago (Howard-bound),Chicago,Chicago (Red Line),41450,True,True,False,False,False,False,False,False,False,False,"{'latitude': '41.896671', 'longitude': '-87.628176', 'human_address': '{""address"": """", ""city"": """", ""state"": """", ""zip"": """"}'}",22,21182,37,626,36
30272,S,Chicago (Forest Pk-bound),Chicago,Chicago (Blue Line),41410,False,False,True,False,False,False,False,False,False,False,"{'latitude': '41.896075', 'longitude': '-87.655214', 'human_address': '{""address"": """", ""city"": """", ""state"": """", ""zip"": """"}'}",41,22620,25,522,46
30137,N,Chicago (Kimball-Linden-bound),Chicago,Chicago (Brown & Purple lines),40710,True,False,False,False,True,False,True,False,False,False,"{'latitude': '41.89681', 'longitude': '-87.635924', 'human_address': '{""address"": """", ""city"": """", ""state"": """", ""zip"": """"}'}",41,14926,37,652,46
30138,S,Chicago (Loop-bound),Chicago,Chicago (Brown & Purple lines),40710,True,False,False,False,True,False,True,False,False,False,"{'latitude': '41.89681', 'longitude': '-87.635924', 'human_address': '{""address"": """", ""city"": """", ""state"": """", ""zip"": """"}'}",41,14926,37,652,46
30271,N,Chicago (O'Hare-bound),Chicago,Chicago (Blue Line),41410,False,False,True,False,False,False,False,False,False,False,"{'latitude': '41.896075', 'longitude': '-87.655214', 'human_address': '{""address"": """", ""city"": """", ""state"": """", ""zip"": """"}'}",41,22620,25,522,46
30280,S,Chicago (95th-bound),Chicago,Chicago (Red Line),41450,True,True,False,False,False,False,False,False,False,False,"{'latitude': '41.896671', 'longitude': '-87.628176', 'human_address': '{""address"": """", ""city"": """", ""state"": """", ""zip"": """"}'}",22,21182,37,626,36
30082,E,Cicero (Loop-bound),Cicero,Cicero (Pink Line),40420,True,False,False,False,False,False,False,False,True,False,"{'latitude': '41.85182', 'longitude': '-87.745336', 'human_address': '{""address"": """", ""city"": """", ""state"": """", ""zip"": """"}'}",,4458,,,
30083,W,Cicero (54th/Cermak-bound),Cicero,Cicero (Pink Line),40420,True,False,False,False,False,False,False,False,True,False,"{'latitude': '41.85182', 'longitude': '-87.745336', 'human_address': '{""address"": """", ""city"": """", ""state"": """", ""zip"": """"}'}",,4458,,,
30187,E,Cicero (O'Hare-bound),Cicero,Cicero (Blue Line),40970,False,False,True,False,False,False,False,False,False,False,"{'latitude': '41.871574', 'longitude': '-87.745154', 'human_address': '{""address"": """", ""city"": """", ""state"": """", ""zip"": """"}'}",36,22216,26,61,7
30188,W,Cicero (Forest Pk-bound),Cicero,Cicero (Blue Line),40970,False,False,True,False,False,False,False,False,False,False,"{'latitude': '41.871574', 'longitude': '-87.745154', 'human_address': '{""address"": """", ""city"": """", ""state"": """", ""zip"": """"}'}",36,22216,26,61,7
30094,E,Cicero (63rd-bound),Cicero,Cicero (Green Line),40480,True,False,False,True,False,False,False,False,False,False,"{'latitude': '41.886519', 'longitude': '-87.744698', 'human_address': '{""address"": """", ""city"": """", ""state"": """", ""zip"": """"}'}",11,22216,26,696,23
30009,W,Cicero (Harlem-bound),Cicero,Cicero (Green Line),40480,True,False,False,True,False,False,False,False,False,False,"{'latitude': '41.886519', 'longitude': '-87.744698', 'human_address': '{""address"": """", ""city"": """", ""state"": """", ""zip"": """"}'}",11,22216,26,696,23
30121,N,Clark/Division (Howard-bound),Clark/Division,Clark/Division (Red Line),40630,True,True,False,False,False,False,False,False,False,False,"{'latitude': '41.90392', 'longitude': '-87.631412', 'human_address': '{""address"": """", ""city"": """", ""state"": """", ""zip"": """"}'}",22,14926,37,17,11
30122,S,Clark/Division (95th-bound),Clark/Division,Clark/Division (Red Line),40630,True,True,False,False,False,False,False,False,False,False,"{'latitude': '41.90392', 'longitude': '-87.631412', 'human_address': '{""address"": """", ""city"": """", ""state"": """", ""zip"": """"}'}",22,14926,37,17,11
30374,S,Clark/Lake (Forest Pk-bound),Clark/Lake,"Clark/Lake (Blue, Brown, Green, Orange, Purple & Pink lines)",40380,True,False,True,False,False,False,False,False,False,False,"{'latitude': '41.885737', 'longitude': '-87.630886', 'human_address': '{""address"": """", ""city"": """", ""state"": """", ""zip"": """"}'}",22,14309,38,92,36
30375,N,Clark/Lake (O'Hare-bound),Clark/Lake,"Clark/Lake (Blue, Brown, Green, Orange, Purple & Pink lines)",40380,True,False,True,False,False,False,False,False,False,False,"{'latitude': '41.885737', 'longitude': '-87.630886', 'human_address': '{""address"": """", ""city"": """", ""state"": """", ""zip"": """"}'}",22,14309,38,92,36
30075,W,Clark/Lake (Outer Loop),Clark/Lake,"Clark/Lake (Blue, Brown, Green, Orange, Purple & Pink lines)",40380,True,False,False,True,True,False,False,False,False,False,"{'latitude': '41.885737', 'longitude': '-87.630886', 'human_address': '{""address"": """", ""city"": """", ""state"": """", ""zip"": """"}'}",22,14309,38,92,36
30074,E,Clark/Lake (Inner Loop),Clark/Lake,"Clark/Lake (Blue, Brown, Green, Orange, Purple & Pink lines)",40380,True,False,False,True,False,False,True,False,True,True,"{'latitude': '41.885737', 'longitude': '-87.630886', 'human_address': '{""address"": """", ""city"": """", ""state"": """", ""zip"": """"}'}",22,14309,38,92,36
30084,E,Clinton (O'Hare-bound),Clinton,Clinton (Blue Line),40430,False,False,True,False,False,False,False,False,False,False,"{'latitude': '41.875539', 'longitude': '-87.640984', 'human_address': '{""address"": """", ""city"": """", ""state"": """", ""zip"": """"}'}",48,14917,29,97,26
30085,W,Clinton (Forest Pk-bound),Clinton,Clinton (Blue Line),40430,False,False,True,False,False,False,False,False,False,False,"{'latitude': '41.875539', 'longitude': '-87.640984', 'human_address': '{""address"": """", ""city"": """", ""state"": """", ""zip"": """"}'}",48,14917,29,97,26
30221,E,Clinton (Loop-63rd-bound),Clinton,Clinton (Green & Pink lines),41160,True,False,False,True,False,False,False,False,True,False,"{'latitude': '41.885678', 'longitude': '-87.641782', 'human_address': '{""address"": """", ""city"": """", ""state"": """", ""zip"": """"}'}",22,4452,29,784,36
30222,W,Clinton (Harlem-54th/Cermak-bound),Clinton,Clinton (Green & Pink lines),41160,True,False,False,True,False,False,False,False,True,False,"{'latitude': '41.885678', 'longitude': '-87.641782', 'human_address': '{""address"": """", ""city"": """", ""state"": """", ""zip"": """"}'}",22,4452,29,784,36
30292,W,Conservatory (Harlem-bound),Conservatory,Conservatory (Green Line),41670,True,False,False,True,False,False,False,False,False,False,"{'latitude': '41.884904', 'longitude': '-87.716523', 'human_address': '{""address"": """", ""city"": """", ""state"": """", ""zip"": """"}'}",11,21572,28,176,23
30291,E,Conservatory (63rd-bound),Conservatory,Conservatory (Green Line),41670,True,False,False,True,False,False,False,False,False,False,"{'latitude': '41.884904', 'longitude': '-87.716523', 'human_address': '{""address"": """", ""city"": """", ""state"": """", ""zip"": """"}'}",11,21572,28,176,23
30140,W,Cottage Grove (Harlem-bound),Cottage Grove,Cottage Grove (Green Line),40720,True,False,False,True,False,False,False,False,False,False,"{'latitude': '41.780309', 'longitude': '-87.605857', 'human_address': '{""address"": """", ""city"": """", ""state"": """", ""zip"": """"}'}",53,22260,9,347,4
30139,E,Cottage Grove (Terminal arrival),Cottage Grove,Cottage Grove (Green Line),40720,True,False,False,True,False,False,False,False,False,False,"{'latitude': '41.780309', 'longitude': '-87.605857', 'human_address': '{""address"": """", ""city"": """", ""state"": """", ""zip"": """"}'}",53,22260,9,347,4
30044,N,Cumberland (O'Hare-bound),Cumberland,Cumberland (Blue Line),40230,True,False,True,False,False,False,False,False,False,False,"{'latitude': '41.984246', 'longitude': '-87.838028', 'human_address': '{""address"": """", ""city"": """", ""state"": """", ""zip"": """"}'}",34,22243,75,64,29
30045,S,Cumberland (Forest Pk-bound),Cumberland,Cumberland (Blue Line),40230,True,False,True,False,False,False,False,False,False,False,"{'latitude': '41.984246', 'longitude': '-87.838028', 'human_address': '{""address"": """", ""city"": """", ""state"": """", ""zip"": """"}'}",34,22243,75,64,29
30041,W,Damen (54th/Cermak-bound),Damen,Damen (Pink Line),40210,True,False,False,False,False,False,False,False,True,False,"{'latitude': '41.854517', 'longitude': '-87.675975', 'human_address': '{""address"": """", ""city"": """", ""state"": """", ""zip"": """"}'}",8,14920,33,366,26
30115,N,Damen/Milwaukee (O'Hare-bound),Damen,Damen (Blue Line),40590,False,False,True,False,False,False,False,False,False,False,"{'latitude': '41.909744', 'longitude': '-87.677437', 'human_address': '{""address"": """", ""city"": """", ""state"": """", ""zip"": """"}'}",24,21560,25,481,41
30018,N,Damen (Kimball-bound),Damen,Damen (Brown Line),40090,True,False,False,False,True,False,False,False,False,False,"{'latitude': '41.966286', 'longitude': '-87.678639', 'human_address': '{""address"": """", ""city"": """", ""state"": """", ""zip"": """"}'}",13,21849,6,225,18
30116,S,Damen/Milwaukee (Forest Pk-bound),Damen,Damen (Blue Line),40590,False,False,True,False,False,False,False,False,False,False,"{'latitude': '41.909744', 'longitude': '-87.677437', 'human_address': '{""address"": """", ""city"": """", ""state"": """", ""zip"": """"}'}",24,21560,25,481,41
30019,S,Damen (Loop-bound),Damen,Damen (Brown Line),40090,True,False,False,False,True,False,False,False,False,False,"{'latitude': '41.966286', 'longitude': '-87.678639', 'human_address': '{""address"": """", ""city"": """", ""state"": """", ""zip"": """"}'}",13,21849,6,225,18
30040,E,Damen (Loop-bound),Damen,Damen (Pink Line),40210,True,False,False,False,False,False,False,False,True,False,"{'latitude': '41.854517', 'longitude': '-87.675975', 'human_address': '{""address"": """", ""city"": """", ""state"": """", ""zip"": """"}'}",8,14920,33,366,26
30011,S,Davis (Howard-Loop-bound),Davis,Davis (Purple Line),40050,True,False,False,False,False,True,True,False,False,False,"{'latitude': '42.04771', 'longitude': '-87.683543', 'human_address': '{""address"": """", ""city"": """", ""state"": """", ""zip"": """"}'}",,26293,,,
30010,N,Davis (Linden-bound),Davis,Davis (Purple Line),40050,True,False,False,False,False,True,True,False,False,False,"{'latitude': '42.04771', 'longitude': '-87.683543', 'human_address': '{""address"": """", ""city"": """", ""state"": """", ""zip"": """"}'}",,26293,,,
30134,S,Dempster (Howard-Loop-bound),Dempster,Dempster (Purple Line),40690,False,False,False,False,False,True,True,False,False,False,"{'latitude': '42.041655', 'longitude': '-87.681602', 'human_address': '{""address"": """", ""city"": """", ""state"": """", ""zip"": """"}'}",,26293,,,
30133,N,Dempster (Linden-bound),Dempster,Dempster (Purple Line),40690,False,False,False,False,False,True,True,False,False,False,"{'latitude': '42.041655', 'longitude': '-87.681602', 'human_address': '{""address"": """", ""city"": """", ""state"": """", ""zip"": """"}'}",,26293,,,
30027,S,Dempster-Skokie (Howard-bound),Dempster-Skokie,Dempster-Skokie  (Yellow Line),40140,True,False,False,False,False,False,False,True,False,False,"{'latitude': '42.038951', 'longitude': '-87.751919', 'human_address': '{""address"": """", ""city"": """", ""state"": """", ""zip"": """"}'}",,9460,,,
30026,N,Dempster-Skokie (Arrival),Dempster-Skokie,Dempster-Skokie  (Yellow Line),40140,True,False,False,False,False,False,False,True,False,False,"{'latitude': '42.038951', 'longitude': '-87.751919', 'human_address': '{""address"": """", ""city"": """", ""state"": """", ""zip"": """"}'}",,9460,,,
30104,S,Diversey (Loop-bound),Diversey,Diversey (Brown & Purple lines),40530,True,False,False,False,True,False,True,False,False,False,"{'latitude': '41.932732', 'longitude': '-87.653131', 'human_address': '{""address"": """", ""city"": """", ""state"": """", ""zip"": """"}'}",38,21190,57,681,25
30103,N,Diversey (Kimball-Linden-bound),Diversey,Diversey (Brown & Purple lines),40530,True,False,False,False,True,False,True,False,False,False,"{'latitude': '41.932732', 'longitude': '-87.653131', 'human_address': '{""address"": """", ""city"": """", ""state"": """", ""zip"": """"}'}",38,21190,57,681,25
30062,N,Division (O'Hare-bound),Division,Division (Blue Line),40320,False,False,True,False,False,False,False,False,False,False,"{'latitude': '41.903355', 'longitude': '-87.666496', 'human_address': '{""address"": """", ""city"": """", ""state"": """", ""zip"": """"}'}",24,22620,25,484,11
30063,S,Division (Forest Pk-bound),Division,Division (Blue Line),40320,False,False,True,False,False,False,False,False,False,False,"{'latitude': '41.903355', 'longitude': '-87.666496', 'human_address': '{""address"": """", ""city"": """", ""state"": """", ""zip"": """"}'}",24,22620,25,484,11
30076,E,Forest Park (O'Hare-bound),Forest Park,Forest Park (Blue Line),40390,True,False,True,False,False,False,False,False,False,False,"{'latitude': '41.874257', 'longitude': '-87.817318', 'human_address': '{""address"": """", ""city"": """", ""state"": """", ""zip"": """"}'}",,15606,,,
30077,W,Forest Park (Terminal Arrival),Forest Park,Forest Park (Blue Line),40390,True,False,True,False,False,False,False,False,False,False,"{'latitude': '41.874257', 'longitude': '-87.817318', 'human_address': '{""address"": """", ""city"": """", ""state"": """", ""zip"": """"}'}",,15606,,,
30102,S,Foster (Howard-Loop-bound),Foster,Foster (Purple Line),40520,False,False,False,False,False,True,True,False,False,False,"{'latitude': '42.05416', 'longitude': '-87.68356', 'human_address': '{""address"": """", ""city"": """", ""state"": """", ""zip"": """"}'}",,26293,,,
30101,N,Foster (Linden-bound),Foster,Foster (Purple Line),40520,False,False,False,False,False,True,True,False,False,False,"{'latitude': '42.05416', 'longitude': '-87.68356', 'human_address': '{""address"": """", ""city"": """", ""state"": """", ""zip"": """"}'}",,26293,,,
30167,N,Francisco (Kimball-bound),Francisco,Francisco (Brown Line),40870,True,False,False,False,True,False,False,False,False,False,"{'latitude': '41.966046', 'longitude': '-87.701644', 'human_address': '{""address"": """", ""city"": """", ""state"": """", ""zip"": """"}'}",2,21849,14,258,20
30168,S,Francisco (Loop-bound),Francisco,Francisco (Brown Line),40870,True,False,False,False,True,False,False,False,False,False,"{'latitude': '41.966046', 'longitude': '-87.701644', 'human_address': '{""address"": """", ""city"": """", ""state"": """", ""zip"": """"}'}",2,21849,14,258,20
30236,S,Fullerton (Loop-bound),Fullerton,"Fullerton (Red, Brown & Purple lines)",41220,True,False,False,False,True,False,True,False,False,False,"{'latitude': '41.925051', 'longitude': '-87.652866', 'human_address': '{""address"": """", ""city"": """", ""state"": """", ""zip"": """"}'}",51,21190,68,744,34
30233,N,Fullerton (Howard-bound),Fullerton,"Fullerton (Red, Brown & Purple lines)",41220,True,True,False,False,False,False,False,False,False,False,"{'latitude': '41.925051', 'longitude': '-87.652866', 'human_address': '{""address"": """", ""city"": """", ""state"": """", ""zip"": """"}'}",51,21190,68,744,34
30234,S,Fullerton (95th-bound),Fullerton,"Fullerton (Red, Brown & Purple lines)",41220,True,True,False,False,False,False,False,False,False,False,"{'latitude': '41.925051', 'longitude': '-87.652866', 'human_address': '{""address"": """", ""city"": """", ""state"": """", ""zip"": """"}'}",51,21190,68,744,34
30235,N,Fullerton (Kimball-Linden-bound),Fullerton,"Fullerton (Red, Brown & Purple lines)",41220,True,False,False,False,True,False,True,False,False,False,"{'latitude': '41.925051', 'longitude': '-87.652866', 'human_address': '{""address"": """", ""city"": """", ""state"": """", ""zip"": """"}'}",51,21190,68,744,34
30099,N,Garfield (Harlem-bound),Garfield,Garfield (Green Line),40510,True,False,False,True,False,False,False,False,False,False,"{'latitude': '41.795172', 'longitude': '-87.618327', 'human_address': '{""address"": """", ""city"": """", ""state"": """", ""zip"": """"}'}",12,21192,7,401,9
30100,S,Garfield (63rd-bound),Garfield,Garfield (Green Line),40510,True,False,False,True,False,False,False,False,False,False,"{'latitude': '41.795172', 'longitude': '-87.618327', 'human_address': '{""address"": """", ""city"": """", ""state"": """", ""zip"": """"}'}",12,21192,7,401,9
30223,N,Garfield (Howard-bound),Garfield,Garfield (Red Line),41170,True,True,False,False,False,False,False,False,False,False,"{'latitude': '41.79542', 'longitude': '-87.631157', 'human_address': '{""address"": """", ""city"": """", ""state"": """", ""zip"": """"}'}",12,14924,3,224,9
30224,S,Garfield (95th-bound),Garfield,Garfield (Red Line),41170,True,True,False,False,False,False,False,False,False,False,"{'latitude': '41.79542', 'longitude': '-87.631157', 'human_address': '{""address"": """", ""city"": """", ""state"": """", ""zip"": """"}'}",12,14924,3,224,9
30096,S,Grand/Milwaukee (Forest Pk-bound),Grand,Grand (Blue Line),40490,False,False,True,False,False,False,False,False,False,False,"{'latitude': '41.891189', 'longitude': '-87.647578', 'human_address': '{""address"": """", ""city"": """", ""state"": """", ""zip"": """"}'}",41,4446,25,109,46
30095,N,Grand/Milwaukee (O'Hare-bound),Grand,Grand (Blue Line),40490,False,False,True,False,False,False,False,False,False,False,"{'latitude': '41.891189', 'longitude': '-87.647578', 'human_address': '{""address"": """", ""city"": """", ""state"": """", ""zip"": """"}'}",41,4446,25,109,46
30064,N,Grand/State (Howard-bound),Grand,Grand (Red Line),40330,True,True,False,False,False,False,False,False,False,False,"{'latitude': '41.891665', 'longitude': '-87.628021', 'human_address': '{""address"": """", ""city"": """", ""state"": """", ""zip"": """"}'}",22,21182,37,626,36
30065,S,Grand/State (95th-bound),Grand,Grand (Red Line),40330,True,True,False,False,False,False,False,False,False,False,"{'latitude': '41.891665', 'longitude': '-87.628021', 'human_address': '{""address"": """", ""city"": """", ""state"": """", ""zip"": """"}'}",22,21182,37,626,36
30147,N,Granville (Howard-bound),Granville,Granville (Red Line),40760,True,True,False,False,False,False,False,False,False,False,"{'latitude': '41.993664', 'longitude': '-87.659202', 'human_address': '{""address"": """", ""city"": """", ""state"": """", ""zip"": """"}'}",40,4451,76,46,16
30148,S,Granville (95th-bound),Granville,Granville (Red Line),40760,True,True,False,False,False,False,False,False,False,False,"{'latitude': '41.993664', 'longitude': '-87.659202', 'human_address': '{""address"": """", ""city"": """", ""state"": """", ""zip"": """"}'}",40,4451,76,46,16
30184,W,Halsted/63rd (Ashland-bound),Halsted,Halsted (Green Line),40940,True,False,False,True,False,False,False,False,False,False,"{'latitude': '41.778943', 'longitude': '-87.644244', 'human_address': '{""address"": """", ""city"": """", ""state"": """", ""zip"": """"}'}",53,21559,66,435,4
30216,S,Halsted (Midway-bound),Halsted,Halsted (Orange Line),41130,True,False,False,False,False,False,False,False,False,True,"{'latitude': '41.84678', 'longitude': '-87.648088', 'human_address': '{""address"": """", ""city"": """", ""state"": """", ""zip"": """"}'}",26,14920,58,59,48
30215,N,Halsted (Loop-bound),Halsted,Halsted (Orange Line),41130,True,False,False,False,False,False,False,False,False,True,"{'latitude': '41.84678', 'longitude': '-87.648088', 'human_address': '{""address"": """", ""city"": """", ""state"": """", ""zip"": """"}'}",26,14920,58,59,48
30183,E,Halsted/63rd (Harlem-bound),Halsted,Halsted (Green Line),40940,True,False,False,True,False,False,False,False,False,False,"{'latitude': '41.778943', 'longitude': '-87.644244', 'human_address': '{""address"": """", ""city"": """", ""state"": """", ""zip"": """"}'}",53,21559,66,435,4
30190,W,Harlem (Forest Pk Branch) (Terminal arrival),Harlem,Harlem (Blue Line - Forest Park Branch),40980,False,False,True,False,False,False,False,False,False,False,"{'latitude': '41.87349', 'longitude': '-87.806961', 'human_address': '{""address"": """", ""city"": """", ""state"": """", ""zip"": """"}'}",,15606,,,
30145,N,Harlem (O'Hare Branch) (O'Hare-bound),Harlem,Harlem (Blue Line - O'Hare Branch),40750,True,False,True,False,False,False,False,False,False,False,"{'latitude': '41.98227', 'longitude': '-87.8089', 'human_address': '{""address"": """", ""city"": """", ""state"": """", ""zip"": """"}'}",34,4448,36,735,29
30146,S,Harlem (O'Hare Branch) (Forest Pk-bound),Harlem,Harlem (Blue Line - O'Hare Branch),40750,True,False,True,False,False,False,False,False,False,False,"{'latitude': '41.98227', 'longitude': '-87.8089', 'human_address': '{""address"": """", ""city"": """", ""state"": """", ""zip"": """"}'}",34,4448,36,735,29
30189,E,Harlem (Forest Pk Branch) (O'Hare-bound),Harlem,Harlem (Blue Line - Forest Park Branch),40980,False,False,True,False,False,False,False,False,False,False,"{'latitude': '41.87349', 'longitude': '-87.806961', 'human_address': '{""address"": """", ""city"": """", ""state"": """", ""zip"": """"}'}",,15606,,,
30004,W,Harlem (Terminal arrival),Harlem/Lake,Harlem/Lake (Green Line),40020,True,False,False,True,False,False,False,False,False,False,"{'latitude': '41.886848', 'longitude': '-87.803176', 'human_address': '{""address"": """", ""city"": """", ""state"": """", ""zip"": """"}'}",,26611,,,
30003,E,Harlem (63rd-bound),Harlem/Lake,Harlem/Lake (Green Line),40020,True,False,False,True,False,False,False,False,False,False,"{'latitude': '41.886848', 'longitude': '-87.803176', 'human_address': '{""address"": """", ""city"": """", ""state"": """", ""zip"": """"}'}",,26611,,,
30165,E,H.W. Library (Outer Loop),Harold Washington Library-State/Van Buren,"Harold Washington Library-State/Van Buren (Brown, Orange, Purple & Pink lines)",40850,True,False,False,False,True,False,False,False,False,False,"{'latitude': '41.876862', 'longitude': '-87.628196', 'human_address': '{""address"": """", ""city"": """", ""state"": """", ""zip"": """"}'}",48,14913,38,92,10
30166,W,H.W. Library (Inner Loop),Harold Washington Library-State/Van Buren,"Harold Washington Library-State/Van Buren (Brown, Orange, Purple & Pink lines)",40850,True,False,False,False,False,False,True,False,True,True,"{'latitude': '41.876862', 'longitude': '-87.628196', 'human_address': '{""address"": """", ""city"": """", ""state"": """", ""zip"": """"}'}",48,14913,38,92,10
30286,S,Harrison (95th-bound),Harrison,Harrison (Red Line),41490,False,True,False,False,False,False,False,False,False,False,"{'latitude': '41.874039', 'longitude': '-87.627479', 'human_address': '{""address"": """", ""city"": """", ""state"": """", ""zip"": """"}'}",48,14913,38,368,10
30285,N,Harrison (Howard-bound),Harrison,Harrison (Red Line),41490,False,True,False,False,False,False,False,False,False,False,"{'latitude': '41.874039', 'longitude': '-87.627479', 'human_address': '{""address"": """", ""city"": """", ""state"": """", ""zip"": """"}'}",48,14913,38,368,10
30173,N,Howard (Terminal arrival),Howard,"Howard (Red, Purple & Yellow lines)",40900,True,True,False,False,False,False,False,False,False,False,"{'latitude': '42.019063', 'longitude': '-87.672892', 'human_address': '{""address"": """", ""city"": """", ""state"": """", ""zip"": """"}'}",3,21853,10,489,5
30175,N,"Howard (Linden, Skokie-bound)",Howard,"Howard (Red, Purple & Yellow lines)",40900,True,False,False,False,False,True,True,True,False,False,"{'latitude': '42.019063', 'longitude': '-87.672892', 'human_address': '{""address"": """", ""city"": """", ""state"": """", ""zip"": """"}'}",3,21853,10,489,5
30176,S,Howard (Terminal arrival),Howard,"Howard (Red, Purple & Yellow lines)",40900,True,False,False,False,False,True,True,True,False,False,"{'latitude': '42.019063', 'longitude': '-87.672892', 'human_address': '{""address"": """", ""city"": """", ""state"": """", ""zip"": """"}'}",3,21853,10,489,5
30174,S,Howard (95th-Bound),Howard,"Howard (Red, Purple & Yellow lines)",40900,True,True,False,False,False,False,False,False,False,False,"{'latitude': '42.019063', 'longitude': '-87.672892', 'human_address': '{""address"": """", ""city"": """", ""state"": """", ""zip"": """"}'}",3,21853,10,489,5
30158,W,Illinois Medical District (Forest Pk-bound),Illinois Medical District,Illinois Medical District (Blue Line),40810,True,False,True,False,False,False,False,False,False,False,"{'latitude': '41.875706', 'longitude': '-87.673932', 'human_address': '{""address"": """", ""city"": """", ""state"": """", ""zip"": """"}'}",48,21184,29,90,46
30157,E,Illinois Medical District (O'Hare-bound),Illinois Medical District,Illinois Medical District (Blue Line),40810,True,False,True,False,False,False,False,False,False,False,"{'latitude': '41.875706', 'longitude': '-87.673932', 'human_address': '{""address"": """", ""city"": """", ""state"": """", ""zip"": """"}'}",48,21184,29,90,46
30059,S,Indiana (63rd-bound),Indiana,Indiana (Green Line),40300,True,False,False,True,False,False,False,False,False,False,"{'latitude': '41.821732', 'longitude': '-87.621371', 'human_address': '{""address"": """", ""city"": """", ""state"": """", ""zip"": """"}'}",12,4301,4,163,9
30058,N,Indiana (Harlem-bound),Indiana,Indiana (Green Line),40300,True,False,False,True,False,False,False,False,False,False,"{'latitude': '41.821732', 'longitude': '-87.621371', 'human_address': '{""address"": """", ""city"": """", ""state"": """", ""zip"": """"}'}",12,4301,4,163,9
30108,S,Irving Park (O'Hare Branch) (Forest Pk-bound),Irving Park,Irving Park (Blue Line),40550,False,False,True,False,False,False,False,False,False,False,"{'latitude': '41.952925', 'longitude': '-87.729229', 'human_address': '{""address"": """", ""city"": """", ""state"": """", ""zip"": """"}'}",28,22618,16,295,50
30107,N,Irving Park (O'Hare Branch) (O'Hare-bound),Irving Park,Irving Park (Blue Line),40550,False,False,True,False,False,False,False,False,False,False,"{'latitude': '41.952925', 'longitude': '-87.729229', 'human_address': '{""address"": """", ""city"": """", ""state"": """", ""zip"": """"}'}",28,22618,16,295,50
30281,N,Irving Park (Kimball-bound),Irving Park,Irving Park (Brown Line),41460,True,False,False,False,True,False,False,False,False,False,"{'latitude': '41.954521', 'longitude': '-87.674868', 'human_address': '{""address"": """", ""city"": """", ""state"": """", ""zip"": """"}'}",13,21186,46,622,18
30282,S,Irving Park (Loop-bound),Irving Park,Irving Park (Brown Line),41460,True,False,False,False,True,False,False,False,False,False,"{'latitude': '41.954521', 'longitude': '-87.674868', 'human_address': '{""address"": """", ""city"": """", ""state"": """", ""zip"": """"}'}",13,21186,46,622,18
30015,S,Jackson/Dearborn (Forest Pk-bound),Jackson,Jackson (Blue Line),40070,True,False,True,False,False,False,False,False,False,False,"{'latitude': '41.878183', 'longitude': '-87.629296', 'human_address': '{""address"": """", ""city"": """", ""state"": """", ""zip"": """"}'}",22,14912,38,92,36
30014,N,Jackson/Dearborn (O'Hare-bound),Jackson,Jackson (Blue Line),40070,True,False,True,False,False,False,False,False,False,False,"{'latitude': '41.878183', 'longitude': '-87.629296', 'human_address': '{""address"": """", ""city"": """", ""state"": """", ""zip"": """"}'}",22,14912,38,92,36
30110,S,Jackson/State (95th-bound),Jackson,Jackson (Red Line),40560,True,True,False,False,False,False,False,False,False,False,"{'latitude': '41.878153', 'longitude': '-87.627596', 'human_address': '{""address"": """", ""city"": """", ""state"": """", ""zip"": """"}'}",48,14912,38,367,10
30109,N,Jackson/State (Howard-bound),Jackson,Jackson (Red Line),40560,True,True,False,False,False,False,False,False,False,False,"{'latitude': '41.878153', 'longitude': '-87.627596', 'human_address': '{""address"": """", ""city"": """", ""state"": """", ""zip"": """"}'}",48,14912,38,367,10
30228,S,Jarvis (95th-bound),Jarvis,Jarvis (Red Line),41190,False,True,False,False,False,False,False,False,False,False,"{'latitude': '42.015876', 'longitude': '-87.669092', 'human_address': '{""address"": """", ""city"": """", ""state"": """", ""zip"": """"}'}",3,21853,10,357,5
30227,N,Jarvis (Howard-bound),Jarvis,Jarvis (Red Line),41190,False,True,False,False,False,False,False,False,False,False,"{'latitude': '42.015876', 'longitude': '-87.669092', 'human_address': '{""address"": """", ""city"": """", ""state"": """", ""zip"": """"}'}",3,21853,10,357,5
30248,S,Jefferson Park (Forest Pk-bound),Jefferson Park,Jefferson Park (Blue Line),41280,True,False,True,False,False,False,False,False,False,False,"{'latitude': '41.970634', 'longitude': '-87.760892', 'human_address': '{""address"": """", ""city"": """", ""state"": """", ""zip"": """"}'}",20,21869,11,129,50
30247,N,Jefferson Park (O'Hare-bound),Jefferson Park,Jefferson Park (Blue Line),41280,True,False,True,False,False,False,False,False,False,False,"{'latitude': '41.970634', 'longitude': '-87.760892', 'human_address': '{""address"": """", ""city"": """", ""state"": """", ""zip"": """"}'}",20,21869,11,129,50
30207,E,Kedzie (63rd-bound),Kedzie,Kedzie (Green Line),41070,True,False,False,True,False,False,False,False,False,False,"{'latitude': '41.884321', 'longitude': '-87.706155', 'human_address': '{""address"": """", ""city"": """", ""state"": """", ""zip"": """"}'}",41,21184,28,50,46
30202,W,Kedzie (54th/Cermak-bound),Kedzie,Kedzie (Pink Line),41040,True,False,False,False,False,False,False,False,True,False,"{'latitude': '41.853964', 'longitude': '-87.705408', 'human_address': '{""address"": """", ""city"": """", ""state"": """", ""zip"": """"}'}",36,21569,30,202,14
30225,N,Kedzie (Kimball-bound),Kedzie,Kedzie (Brown Line),41180,True,False,False,False,True,False,False,False,False,False,"{'latitude': '41.965996', 'longitude': '-87.708821', 'human_address': '{""address"": """", ""city"": """", ""state"": """", ""zip"": """"}'}",2,21849,14,118,20
30219,N,Kedzie (Loop-bound),Kedzie,Kedzie (Orange Line),41150,True,False,False,False,False,False,False,False,False,True,"{'latitude': '41.804236', 'longitude': '-87.704406', 'human_address': '{""address"": """", ""city"": """", ""state"": """", ""zip"": """"}'}",49,22248,55,776,8
30226,S,Kedzie (Loop-bound),Kedzie,Kedzie (Brown Line),41180,True,False,False,False,True,False,False,False,False,False,"{'latitude': '41.965996', 'longitude': '-87.708821', 'human_address': '{""address"": """", ""city"": """", ""state"": """", ""zip"": """"}'}",2,21849,14,118,20
30220,S,Kedzie (Midway-bound),Kedzie,Kedzie (Orange Line),41150,True,False,False,False,False,False,False,False,False,True,"{'latitude': '41.804236', 'longitude': '-87.704406', 'human_address': '{""address"": """", ""city"": """", ""state"": """", ""zip"": """"}'}",49,22248,55,776,8
30208,W,Kedzie (Harlem-bound),Kedzie,Kedzie (Green Line),41070,True,False,False,True,False,False,False,False,False,False,"{'latitude': '41.884321', 'longitude': '-87.706155', 'human_address': '{""address"": """", ""city"": """", ""state"": """", ""zip"": """"}'}",41,21184,28,50,46
30201,E,Kedzie (Loop-bound),Kedzie,Kedzie (Pink Line),41040,True,False,False,False,False,False,False,False,True,False,"{'latitude': '41.853964', 'longitude': '-87.705408', 'human_address': '{""address"": """", ""city"": """", ""state"": """", ""zip"": """"}'}",36,21569,30,202,14
30048,E,Kedzie-Homan (O'Hare-bound),Kedzie-Homan,Kedzie-Homan (Blue Line),40250,True,False,True,False,False,False,False,False,False,False,"{'latitude': '41.874341', 'longitude': '-87.70604', 'human_address': '{""address"": """", ""city"": """", ""state"": """", ""zip"": """"}'}",36,21572,28,765,14
30049,W,Kedzie-Homan (Forest Pk-bound),Kedzie-Homan,Kedzie-Homan (Blue Line),40250,True,False,True,False,False,False,False,False,False,False,"{'latitude': '41.874341', 'longitude': '-87.70604', 'human_address': '{""address"": """", ""city"": """", ""state"": """", ""zip"": """"}'}",36,21572,28,765,14
30250,S,Kimball (Loop-bound),Kimball,Kimball (Brown Line),41290,True,False,False,False,True,False,False,False,False,False,"{'latitude': '41.967901', 'longitude': '-87.713065', 'human_address': '{""address"": """", ""city"": """", ""state"": """", ""zip"": """"}'}",2,21849,14,118,20
30249,N,Kimball (Terminal arrival),Kimball,Kimball (Brown Line),41290,True,False,False,False,True,False,False,False,False,False,"{'latitude': '41.967901', 'longitude': '-87.713065', 'human_address': '{""address"": """", ""city"": """", ""state"": """", ""zip"": """"}'}",2,21849,14,118,20
30218,W,King Drive (Harlem-bound),King Drive,King Drive (Green Line),41140,True,False,False,True,False,False,False,False,False,False,"{'latitude': '41.78013', 'longitude': '-87.615546', 'human_address': '{""address"": """", ""city"": """", ""state"": """", ""zip"": """"}'}",53,22260,9,332,4
30217,E,King Drive (Cottage Grove-bound),King Drive,King Drive (Green Line),41140,True,False,False,True,False,False,False,False,False,False,"{'latitude': '41.78013', 'longitude': '-87.615546', 'human_address': '{""address"": """", ""city"": """", ""state"": """", ""zip"": """"}'}",53,22260,9,332,4
30117,E,Kostner (Loop-bound),Kostner,Kostner (Pink Line),40600,True,False,False,False,False,False,False,False,True,False,"{'latitude': '41.853751', 'longitude': '-87.733258', 'human_address': '{""address"": """", ""city"": """", ""state"": """", ""zip"": """"}'}",36,21569,30,753,14
30118,W,Kostner (54th/Cermak-bound),Kostner,Kostner (Pink Line),40600,True,False,False,False,False,False,False,False,True,False,"{'latitude': '41.853751', 'longitude': '-87.733258', 'human_address': '{""address"": """", ""city"": """", ""state"": """", ""zip"": """"}'}",36,21569,30,753,14
30290,S,Lake (95th-bound),Lake,Lake (Red Line),41660,True,True,False,False,False,False,False,False,False,False,"{'latitude': '41.884809', 'longitude': '-87.627813', 'human_address': '{""address"": """", ""city"": """", ""state"": """", ""zip"": """"}'}",22,14309,38,580,36
30289,N,Lake (Howard-bound),Lake,Lake (Red Line),41660,True,True,False,False,False,False,False,False,False,False,"{'latitude': '41.884809', 'longitude': '-87.627813', 'human_address': '{""address"": """", ""city"": """", ""state"": """", ""zip"": """"}'}",22,14309,38,580,36
30135,E,Laramie (63rd-bound),Laramie,Laramie (Green Line),40700,True,False,False,True,False,False,False,False,False,False,"{'latitude': '41.887163', 'longitude': '-87.754986', 'human_address': '{""address"": """", ""city"": """", ""state"": """", ""zip"": """"}'}",11,22216,26,696,23
30136,W,Laramie (Harlem-bound),Laramie,Laramie (Green Line),40700,True,False,False,True,False,False,False,False,False,False,"{'latitude': '41.887163', 'longitude': '-87.754986', 'human_address': '{""address"": """", ""city"": """", ""state"": """", ""zip"": """"}'}",11,22216,26,696,23
30262,W,LaSalle (Forest Pk-bound),LaSalle,LaSalle (Blue Line),41340,False,False,True,False,False,False,False,False,False,False,"{'latitude': '41.875568', 'longitude': '-87.631722', 'human_address': '{""address"": """", ""city"": """", ""state"": """", ""zip"": """"}'}",48,14913,38,92,10
30261,E,LaSalle (O'Hare-bound),LaSalle,LaSalle (Blue Line),41340,False,False,True,False,False,False,False,False,False,False,"{'latitude': '41.875568', 'longitude': '-87.631722', 'human_address': '{""address"": """", ""city"": """", ""state"": """", ""zip"": """"}'}",48,14913,38,92,10
30030,E,LaSalle/Van Buren (Outer Loop),LaSalle/Van Buren,"LaSalle/Van Buren (Brown, Orange, Purple & Pink lines)",40160,False,False,False,False,True,False,False,False,False,False,"{'latitude': '41.8768', 'longitude': '-87.631739', 'human_address': '{""address"": """", ""city"": """", ""state"": """", ""zip"": """"}'}",48,14913,38,92,10
30031,W,LaSalle/Van Buren (Inner Loop),LaSalle/Van Buren,"LaSalle/Van Buren (Brown, Orange, Purple & Pink lines)",40160,False,False,False,False,False,False,True,False,True,True,"{'latitude': '41.8768', 'longitude': '-87.631739', 'human_address': '{""address"": """", ""city"": """", ""state"": """", ""zip"": """"}'}",48,14913,38,92,10
30149,N,Lawrence (Howard-bound),Lawrence,Lawrence (Red Line),40770,False,True,False,False,False,False,False,False,False,False,"{'latitude': '41.969139', 'longitude': '-87.658493', 'human_address': '{""address"": """", ""city"": """", ""state"": """", ""zip"": """"}'}",40,22616,31,634,39
30150,S,Lawrence (95th-bound),Lawrence,Lawrence (Red Line),40770,False,True,False,False,False,False,False,False,False,False,"{'latitude': '41.969139', 'longitude': '-87.658493', 'human_address': '{""address"": """", ""city"": """", ""state"": """", ""zip"": """"}'}",40,22616,31,634,39
30204,S,Linden (Howard-Loop-bound),Linden,Linden (Purple Line),41050,True,False,False,False,False,True,True,False,False,False,"{'latitude': '42.073153', 'longitude': '-87.69073', 'human_address': '{""address"": """", ""city"": """", ""state"": """", ""zip"": """"}'}",,9857,,,
30203,N,Linden (Linden-bound),Linden,Linden (Purple Line),41050,True,False,False,False,False,True,True,False,False,False,"{'latitude': '42.073153', 'longitude': '-87.69073', 'human_address': '{""address"": """", ""city"": """", ""state"": """", ""zip"": """"}'}",,9857,,,
30198,S,Logan Square (Forest Pk-bound),Logan Square,Logan Square (Blue Line),41020,True,False,True,False,False,False,False,False,False,False,"{'latitude': '41.929728', 'longitude': '-87.708541', 'human_address': '{""address"": """", ""city"": """", ""state"": """", ""zip"": """"}'}",15,22535,23,72,12
30197,N,Logan Square (O'Hare-bound),Logan Square,Logan Square (Blue Line),41020,True,False,True,False,False,False,False,False,False,False,"{'latitude': '41.929728', 'longitude': '-87.708541', 'human_address': '{""address"": """", ""city"": """", ""state"": """", ""zip"": """"}'}",15,22535,23,72,12
30252,S,Loyola (95th-bound),Loyola,Loyola (Red Line),41300,True,True,False,False,False,False,False,False,False,False,"{'latitude': '42.001073', 'longitude': '-87.661061', 'human_address': '{""address"": """", ""city"": """", ""state"": """", ""zip"": """"}'}",3,21853,10,48,5
30251,N,Loyola (Howard-bound),Loyola,Loyola (Red Line),41300,True,True,False,False,False,False,False,False,False,False,"{'latitude': '42.001073', 'longitude': '-87.661061', 'human_address': '{""address"": """", ""city"": """", ""state"": """", ""zip"": """"}'}",3,21853,10,48,5
30052,N,Main (Linden-bound),Main,Main (Purple Line),40270,False,False,False,False,False,True,True,False,False,False,"{'latitude': '42.033456', 'longitude': '-87.679538', 'human_address': '{""address"": """", ""city"": """", ""state"": """", ""zip"": """"}'}",,26609,,,
30053,S,Main (Howard-Loop-bound),Main,Main (Purple Line),40270,False,False,False,False,False,True,True,False,False,False,"{'latitude': '42.033456', 'longitude': '-87.679538', 'human_address': '{""address"": """", ""city"": """", ""state"": """", ""zip"": """"}'}",,26609,,,
30090,N,Merchandise Mart (Kimball-Linden-bound),Merchandise Mart,Merchandise Mart (Brown & Purple lines),40460,True,False,False,False,True,False,True,False,False,False,"{'latitude': '41.888969', 'longitude': '-87.633924', 'human_address': '{""address"": """", ""city"": """", ""state"": """", ""zip"": """"}'}",22,4446,37,670,36
30091,S,Merchandise Mart (Loop-bound),Merchandise Mart,Merchandise Mart (Brown & Purple lines),40460,True,False,False,False,True,False,True,False,False,False,"{'latitude': '41.888969', 'longitude': '-87.633924', 'human_address': '{""address"": """", ""city"": """", ""state"": """", ""zip"": """"}'}",22,4446,37,670,36
30182,S,Midway (Arrival),Midway,Midway (Orange Line),40930,True,False,False,False,False,False,False,False,False,True,"{'latitude': '41.78661', 'longitude': '-87.737875', 'human_address': '{""address"": """", ""city"": """", ""state"": """", ""zip"": """"}'}",35,21867,53,86,15
30181,N,Midway (Loop-bound),Midway,Midway (Orange Line),40930,True,False,False,False,False,False,False,False,False,True,"{'latitude': '41.78661', 'longitude': '-87.737875', 'human_address': '{""address"": """", ""city"": """", ""state"": """", ""zip"": """"}'}",35,21867,53,86,15
30154,S,Monroe (Forest Pk-bound),Monroe,Monroe (Blue Line),40790,False,False,True,False,False,False,False,False,False,False,"{'latitude': '41.880703', 'longitude': '-87.629378', 'human_address': '{""address"": """", ""city"": """", ""state"": """", ""zip"": """"}'}",22,14311,38,92,36
30211,N,Monroe (Howard-bound),Monroe,Monroe (Red Line),41090,False,True,False,False,False,False,False,False,False,False,"{'latitude': '41.880745', 'longitude': '-87.627696', 'human_address': '{""address"": """", ""city"": """", ""state"": """", ""zip"": """"}'}",22,14311,38,367,36
30212,S,Monroe (95th-bound),Monroe,Monroe (Red Line),41090,False,True,False,False,False,False,False,False,False,False,"{'latitude': '41.880745', 'longitude': '-87.627696', 'human_address': '{""address"": """", ""city"": """", ""state"": """", ""zip"": """"}'}",22,14311,38,367,36
30153,N,Monroe (O'Hare-bound),Monroe,Monroe (Blue Line),40790,False,False,True,False,False,False,False,False,False,False,"{'latitude': '41.880703', 'longitude': '-87.629378', 'human_address': '{""address"": """", ""city"": """", ""state"": """", ""zip"": """"}'}",22,14311,38,92,36
30287,N,Montrose (Kimball-bound),Montrose,Montrose (Brown Line),41500,True,False,False,False,True,False,False,False,False,False,"{'latitude': '41.961756', 'longitude': '-87.675047', 'human_address': '{""address"": """", ""city"": """", ""state"": """", ""zip"": """"}'}",13,22616,6,225,18
30288,S,Montrose (Loop-bound),Montrose,Montrose (Brown Line),41500,True,False,False,False,True,False,False,False,False,False,"{'latitude': '41.961756', 'longitude': '-87.675047', 'human_address': '{""address"": """", ""city"": """", ""state"": """", ""zip"": """"}'}",13,22616,6,225,18
30260,S,Montrose (Forest Pk-bound),Montrose,Montrose (Blue Line),41330,False,False,True,False,False,False,False,False,False,False,"{'latitude': '41.961539', 'longitude': '-87.743574', 'human_address': '{""address"": """", ""city"": """", ""state"": """", ""zip"": """"}'}",20,21869,16,362,38
30259,N,Montrose (O'Hare-bound),Montrose,Montrose (Blue Line),41330,False,False,True,False,False,False,False,False,False,False,"{'latitude': '41.961539', 'longitude': '-87.743574', 'human_address': '{""address"": """", ""city"": """", ""state"": """", ""zip"": """"}'}",20,21869,16,362,38
30296,W,Morgan (Harlem-54th/Cermak-bound),Morgan,Morgan (Green & Pink lines),41510,True,False,False,True,False,False,False,False,True,False,"{'latitude': '41.885586', 'longitude': '-87.652193', 'human_address': '{""address"": """", ""city"": """", ""state"": """", ""zip"": """"}'}",41,14917,29,63,46
30295,E,Morgan (Loop-63rd-bound),Morgan,Morgan (Green & Pink lines),41510,True,False,False,True,False,False,False,False,True,False,"{'latitude': '41.885586', 'longitude': '-87.652193', 'human_address': '{""address"": """", ""city"": """", ""state"": """", ""zip"": """"}'}",41,14917,29,63,46
30021,S,Morse (95th-bound),Morse,Morse (Red Line),40100,False,True,False,False,False,False,False,False,False,False,"{'latitude': '42.008362', 'longitude': '-87.665909', 'human_address': '{""address"": """", ""city"": """", ""state"": """", ""zip"": """"}'}",3,21853,10,358,5
30020,N,Morse (Howard-bound),Morse,Morse (Red Line),40100,False,True,False,False,False,False,False,False,False,False,"{'latitude': '42.008362', 'longitude': '-87.665909', 'human_address': '{""address"": """", ""city"": """", ""state"": """", ""zip"": """"}'}",3,21853,10,358,5
30126,S,North/Clybourn (95th-bound),North/Clybourn,North/Clybourn (Red Line),40650,False,True,False,False,False,False,False,False,False,False,"{'latitude': '41.910655', 'longitude': '-87.649177', 'human_address': '{""address"": """", ""city"": """", ""state"": """", ""zip"": """"}'}",51,22620,37,108,11
30125,N,North/Clybourn (Howard-bound),North/Clybourn,North/Clybourn (Red Line),40650,False,True,False,False,False,False,False,False,False,False,"{'latitude': '41.910655', 'longitude': '-87.649177', 'human_address': '{""address"": """", ""city"": """", ""state"": """", ""zip"": """"}'}",51,22620,37,108,11
30078,N,Noyes (Linden-bound),Noyes,Noyes (Purple Line),40400,False,False,False,False,False,True,True,False,False,False,"{'latitude': '42.058282', 'longitude': '-87.683337', 'human_address': '{""address"": """", ""city"": """", ""state"": """", ""zip"": """"}'}",,26293,,,
30079,S,Noyes (Howard-Loop-bound),Noyes,Noyes (Purple Line),40400,False,False,False,False,False,True,True,False,False,False,"{'latitude': '42.058282', 'longitude': '-87.683337', 'human_address': '{""address"": """", ""city"": """", ""state"": """", ""zip"": """"}'}",,26293,,,
30263,E,Oak Park (63rd-bound),Oak Park,Oak Park (Green Line),41350,False,False,False,True,False,False,False,False,False,False,"{'latitude': '41.886988', 'longitude': '-87.793783', 'human_address': '{""address"": """", ""city"": """", ""state"": """", ""zip"": """"}'}",,26611,,,
30264,W,Oak Park (Harlem-bound),Oak Park,Oak Park (Green Line),41350,False,False,False,True,False,False,False,False,False,False,"{'latitude': '41.886988', 'longitude': '-87.793783', 'human_address': '{""address"": """", ""city"": """", ""state"": """", ""zip"": """"}'}",,26611,,,
30035,W,Oak Park (Forest Pk-bound),Oak Park,Oak Park (Blue Line),40180,False,False,True,False,False,False,False,False,False,False,"{'latitude': '41.872108', 'longitude': '-87.791602', 'human_address': '{""address"": """", ""city"": """", ""state"": """", ""zip"": """"}'}",,26618,,,
30034,E,Oak Park (O'Hare-bound),Oak Park,Oak Park (Blue Line),40180,False,False,True,False,False,False,False,False,False,False,"{'latitude': '41.872108', 'longitude': '-87.791602', 'human_address': '{""address"": """", ""city"": """", ""state"": """", ""zip"": """"}'}",,26618,,,
30297,N,Oakton-Skokie (Dempster-Skokie-bound),Oakton-Skokie,Oakton-Skokie (Yellow Line),41680,True,False,False,False,False,False,False,True,False,False,"{'latitude': '42.02624348', 'longitude': '-87.74722084', 'human_address': '{""address"": """", ""city"": """", ""state"": """", ""zip"": """"}'}",,9460,,,
30298,S,Oakton-Skokie (Howard-bound),Oakton-Skokie,Oakton-Skokie (Yellow Line),41680,True,False,False,False,False,False,False,True,False,False,"{'latitude': '42.02624348', 'longitude': '-87.74722084', 'human_address': '{""address"": """", ""city"": """", ""state"": """", ""zip"": """"}'}",,9460,,,
30171,N,O'Hare (Terminal Arrival),O'Hare,O'Hare (Blue Line),40890,True,False,True,False,False,False,False,False,False,False,"{'latitude': '41.97766526', 'longitude': '-87.90422307', 'human_address': '{""address"": """", ""city"": """", ""state"": """", ""zip"": """"}'}",34,16197,75,668,29
30172,S,O'Hare (Forest Pk-bound),O'Hare,O'Hare (Blue Line),40890,True,False,True,False,False,False,False,False,False,False,"{'latitude': '41.97766526', 'longitude': '-87.90422307', 'human_address': '{""address"": """", ""city"": """", ""state"": """", ""zip"": """"}'}",34,16197,75,668,29
30253,N,Paulina (Kimball-bound),Paulina,Paulina (Brown Line),41310,True,False,False,False,True,False,False,False,False,False,"{'latitude': '41.943623', 'longitude': '-87.670907', 'human_address': '{""address"": """", ""city"": """", ""state"": """", ""zip"": """"}'}",16,4449,57,239,18
30254,S,Paulina (Loop-bound),Paulina,Paulina (Brown Line),41310,True,False,False,False,True,False,False,False,False,False,"{'latitude': '41.943623', 'longitude': '-87.670907', 'human_address': '{""address"": """", ""city"": """", ""state"": """", ""zip"": """"}'}",16,4449,57,239,18
30200,W,Polk (54th/Cermak-bound),Polk,Polk (Pink Line),41030,True,False,False,False,False,False,False,False,True,False,"{'latitude': '41.871551', 'longitude': '-87.66953', 'human_address': '{""address"": """", ""city"": """", ""state"": """", ""zip"": """"}'}",48,21184,29,5,46
30199,E,Polk (Loop-bound),Polk,Polk (Pink Line),41030,True,False,False,False,False,False,False,False,True,False,"{'latitude': '41.871551', 'longitude': '-87.66953', 'human_address': '{""address"": """", ""city"": """", ""state"": """", ""zip"": """"}'}",48,21184,29,5,46
30180,W,Pulaski (Forest Pk-bound),Pulaski,Pulaski (Blue Line),40920,False,False,True,False,False,False,False,False,False,False,"{'latitude': '41.873797', 'longitude': '-87.725663', 'human_address': '{""address"": """", ""city"": """", ""state"": """", ""zip"": """"}'}",36,21572,27,675,14
30185,N,Pulaski (Loop-bound),Pulaski,Pulaski (Orange Line),40960,True,False,False,False,False,False,False,False,False,True,"{'latitude': '41.799756', 'longitude': '-87.724493', 'human_address': '{""address"": """", ""city"": """", ""state"": """", ""zip"": """"}'}",35,22248,60,793,6
30029,W,Pulaski (54th/Cermak-bound),Pulaski,Pulaski (Pink Line),40150,True,False,False,False,False,False,False,False,True,False,"{'latitude': '41.853732', 'longitude': '-87.724311', 'human_address': '{""address"": """", ""city"": """", ""state"": """", ""zip"": """"}'}",36,21569,30,752,14
30028,E,Pulaski (Loop-bound),Pulaski,Pulaski (Pink Line),40150,True,False,False,False,False,False,False,False,True,False,"{'latitude': '41.853732', 'longitude': '-87.724311', 'human_address': '{""address"": """", ""city"": """", ""state"": """", ""zip"": """"}'}",36,21569,30,752,14
30005,E,Pulaski (63rd-bound),Pulaski,Pulaski (Green Line),40030,True,False,False,True,False,False,False,False,False,False,"{'latitude': '41.885412', 'longitude': '-87.725404', 'human_address': '{""address"": """", ""city"": """", ""state"": """", ""zip"": """"}'}",11,21572,27,658,23
30006,W,Pulaski (Harlem-bound),Pulaski,Pulaski (Green Line),40030,True,False,False,True,False,False,False,False,False,False,"{'latitude': '41.885412', 'longitude': '-87.725404', 'human_address': '{""address"": """", ""city"": """", ""state"": """", ""zip"": """"}'}",11,21572,27,658,23
30179,E,Pulaski (O'Hare-bound),Pulaski,Pulaski (Blue Line),40920,False,False,True,False,False,False,False,False,False,False,"{'latitude': '41.873797', 'longitude': '-87.725663', 'human_address': '{""address"": """", ""city"": """", ""state"": """", ""zip"": """"}'}",36,21572,27,675,14
30186,S,Pulaski (Midway-bound),Pulaski,Pulaski (Orange Line),40960,True,False,False,False,False,False,False,False,False,True,"{'latitude': '41.799756', 'longitude': '-87.724493', 'human_address': '{""address"": """", ""city"": """", ""state"": """", ""zip"": """"}'}",35,22248,60,793,6
30008,S,Quincy/Wells (Outer Loop),Quincy/Wells,"Quincy/Wells (Brown, Orange, Purple & Pink lines)",40040,True,False,False,False,True,False,False,False,False,False,"{'latitude': '41.878723', 'longitude': '-87.63374', 'human_address': '{""address"": """", ""city"": """", ""state"": """", ""zip"": """"}'}",22,14912,38,92,36
30007,N,Quincy/Wells (Inner Loop),Quincy/Wells,"Quincy/Wells (Brown, Orange, Purple & Pink lines)",40040,True,False,False,False,False,False,True,False,True,True,"{'latitude': '41.878723', 'longitude': '-87.63374', 'human_address': '{""address"": """", ""city"": """", ""state"": """", ""zip"": """"}'}",22,14912,38,92,36
30092,E,Racine (O'Hare-bound),Racine,Racine (Blue Line),40470,False,False,True,False,False,False,False,False,False,False,"{'latitude': '41.87592', 'longitude': '-87.659458', 'human_address': '{""address"": """", ""city"": """", ""state"": """", ""zip"": """"}'}",48,14917,29,88,23
30093,W,Racine (Forest Pk-bound),Racine,Racine (Blue Line),40470,False,False,True,False,False,False,False,False,False,False,"{'latitude': '41.87592', 'longitude': '-87.659458', 'human_address': '{""address"": """", ""city"": """", ""state"": """", ""zip"": """"}'}",48,14917,29,88,23
30120,W,Ridgeland (Harlem-bound),Ridgeland,Ridgeland (Green Line),40610,False,False,False,True,False,False,False,False,False,False,"{'latitude': '41.887159', 'longitude': '-87.783661', 'human_address': '{""address"": """", ""city"": """", ""state"": """", ""zip"": """"}'}",,26615,,,
30119,E,Ridgeland (63rd-bound),Ridgeland,Ridgeland (Green Line),40610,False,False,False,True,False,False,False,False,False,False,"{'latitude': '41.887159', 'longitude': '-87.783661', 'human_address': '{""address"": """", ""city"": """", ""state"": """", ""zip"": """"}'}",,26615,,,
30195,N,Rockwell (Kimball-bound),Rockwell,Rockwell (Brown Line),41010,True,False,False,False,True,False,False,False,False,False,"{'latitude': '41.966115', 'longitude': '-87.6941', 'human_address': '{""address"": """", ""city"": """", ""state"": """", ""zip"": """"}'}",13,21849,6,666,18
30196,S,Rockwell (Loop-bound),Rockwell,Rockwell (Brown Line),41010,True,False,False,False,True,False,False,False,False,False,"{'latitude': '41.966115', 'longitude': '-87.6941', 'human_address': '{""address"": """", ""city"": """", ""state"": """", ""zip"": """"}'}",13,21849,6,666,18
30269,N,Roosevelt (Howard-bound),Roosevelt,"Roosevelt (Red, Orange & Green lines)",41400,True,True,False,False,False,False,False,False,False,False,"{'latitude': '41.867368', 'longitude': '-87.627402', 'human_address': '{""address"": """", ""city"": """", ""state"": """", ""zip"": """"}'}",48,14913,34,374,9
30270,S,Roosevelt (95th-bound),Roosevelt,"Roosevelt (Red, Orange & Green lines)",41400,True,True,False,False,False,False,False,False,False,False,"{'latitude': '41.867368', 'longitude': '-87.627402', 'human_address': '{""address"": """", ""city"": """", ""state"": """", ""zip"": """"}'}",48,14913,34,374,9
30080,N,Roosevelt (Loop-Harlem-bound),Roosevelt,"Roosevelt (Red, Orange & Green lines)",41400,True,False,False,True,False,False,False,False,False,True,"{'latitude': '41.867405', 'longitude': '-87.62659', 'human_address': '{""address"": """", ""city"": """", ""state"": """", ""zip"": """"}'}",48,14913,34,374,9
30081,S,Roosevelt (Midway-63rd-bound),Roosevelt,"Roosevelt (Red, Orange & Green lines)",41400,True,False,False,True,False,False,False,False,False,True,"{'latitude': '41.867405', 'longitude': '-87.62659', 'human_address': '{""address"": """", ""city"": """", ""state"": """", ""zip"": """"}'}",48,14913,34,374,9
30159,N,Rosemont (O'Hare-bound),Rosemont,Rosemont (Blue Line),40820,True,False,True,False,False,False,False,False,False,False,"{'latitude': '41.983507', 'longitude': '-87.859388', 'human_address': '{""address"": """", ""city"": """", ""state"": """", ""zip"": """"}'}",,16197,,,
30160,S,Rosemont (Forest Pk-bound),Rosemont,Rosemont (Blue Line),40820,True,False,True,False,False,False,False,False,False,False,"{'latitude': '41.983507', 'longitude': '-87.859388', 'human_address': '{""address"": """", ""city"": """", ""state"": """", ""zip"": """"}'}",,16197,,,
30155,N,Sedgwick (Kimball-Linden-bound),Sedgwick,Sedgwick (Brown & Purple lines),40800,True,False,False,False,True,False,True,False,False,False,"{'latitude': '41.910409', 'longitude': '-87.639302', 'human_address': '{""address"": """", ""city"": """", ""state"": """", ""zip"": """"}'}",51,14926,37,309,11
30156,S,Sedgwick (Loop-bound),Sedgwick,Sedgwick (Brown & Purple lines),40800,True,False,False,False,True,False,True,False,False,False,"{'latitude': '41.910409', 'longitude': '-87.639302', 'human_address': '{""address"": """", ""city"": """", ""state"": """", ""zip"": """"}'}",51,14926,37,309,11
30293,N,Sheridan (Howard-Linden-bound),Sheridan,Sheridan (Red Line),40080,False,False,False,False,False,False,False,False,False,False,"{'latitude': '41.953775', 'longitude': '-87.654929', 'human_address': '{""address"": """", ""city"": """", ""state"": """", ""zip"": """"}'}",38,21186,57,83,39
30016,N,Sheridan (Howard-bound),Sheridan,Sheridan (Red Line),40080,False,True,False,False,False,False,False,False,False,False,"{'latitude': '41.953775', 'longitude': '-87.654929', 'human_address': '{""address"": """", ""city"": """", ""state"": """", ""zip"": """"}'}",38,21186,57,83,39
30294,S,Sheridan (Loop-bound),Sheridan,Sheridan (Red Line),40080,False,False,False,False,False,False,False,False,False,False,"{'latitude': '41.953775', 'longitude': '-87.654929', 'human_address': '{""address"": """", ""city"": """", ""state"": """", ""zip"": """"}'}",38,21186,57,83,39
30017,S,Sheridan (95th-bound),Sheridan,Sheridan (Red Line),40080,False,True,False,False,False,False,False,False,False,False,"{'latitude': '41.953775', 'longitude': '-87.654929', 'human_address': '{""address"": """", ""city"": """", ""state"": """", ""zip"": """"}'}",38,21186,57,83,39
30164,S,South Blvd (Howard-Loop-bound),South Boulevard,South Boulevard (Purple Line),40840,False,False,False,False,False,True,True,False,False,False,"{'latitude': '42.027612', 'longitude': '-87.678329', 'human_address': '{""address"": """", ""city"": """", ""state"": """", ""zip"": """"}'}",,26609,,,
30163,N,South Blvd (Linden-bound),South Boulevard,South Boulevard (Purple Line),40840,False,False,False,False,False,True,True,False,False,False,"{'latitude': '42.027612', 'longitude': '-87.678329', 'human_address': '{""address"": """", ""city"": """", ""state"": """", ""zip"": """"}'}",,26609,,,
30070,N,Southport (Kimball-bound),Southport,Southport (Brown Line),40360,True,False,False,False,True,False,False,False,False,False,"{'latitude': '41.943744', 'longitude': '-87.663619', 'human_address': '{""address"": """", ""city"": """", ""state"": """", ""zip"": """"}'}",38,4449,57,729,25
30071,S,Southport (Loop-bound),Southport,Southport (Brown Line),40360,True,False,False,False,True,False,False,False,False,False,"{'latitude': '41.943744', 'longitude': '-87.663619', 'human_address': '{""address"": """", ""city"": """", ""state"": """", ""zip"": """"}'}",38,4449,57,729,25
30036,N,Sox-35th (Howard-bound),Sox-35th,Sox-35th (Red Line),40190,True,True,False,False,False,False,False,False,False,False,"{'latitude': '41.831191', 'longitude': '-87.630636', 'human_address': '{""address"": """", ""city"": """", ""state"": """", ""zip"": """"}'}",26,21194,35,376,48
30037,S,Sox-35th (95th-bound),Sox-35th,Sox-35th (Red Line),40190,True,True,False,False,False,False,False,False,False,False,"{'latitude': '41.831191', 'longitude': '-87.630636', 'human_address': '{""address"": """", ""city"": """", ""state"": """", ""zip"": """"}'}",26,21194,35,376,48
30051,W,State/Lake (Outer Loop),State/Lake,"State/Lake (Brown, Green, Orange, Pink & Purple lines)",40260,False,False,False,True,True,False,False,False,False,False,"{'latitude': '41.88574', 'longitude': '-87.627835', 'human_address': '{""address"": """", ""city"": """", ""state"": """", ""zip"": """"}'}",22,14309,38,580,36
30050,E,State/Lake (Inner Loop),State/Lake,"State/Lake (Brown, Green, Orange, Pink & Purple lines)",40260,False,False,False,True,False,False,True,False,True,True,"{'latitude': '41.88574', 'longitude': '-87.627835', 'human_address': '{""address"": """", ""city"": """", ""state"": """", ""zip"": """"}'}",22,14309,38,580,36
30169,N,Thorndale (Howard-bound),Thorndale,Thorndale (Red Line),40880,False,True,False,False,False,False,False,False,False,False,"{'latitude': '41.990259', 'longitude': '-87.659076', 'human_address': '{""address"": """", ""city"": """", ""state"": """", ""zip"": """"}'}",40,4451,76,213,16
30170,S,Thorndale (95th-bound),Thorndale,Thorndale (Red Line),40880,False,True,False,False,False,False,False,False,False,False,"{'latitude': '41.990259', 'longitude': '-87.659076', 'human_address': '{""address"": """", ""city"": """", ""state"": """", ""zip"": """"}'}",40,4451,76,213,16
30068,E,UIC-Halsted (O'Hare-bound),UIC-Halsted,UIC-Halsted (Blue Line),40350,True,False,True,False,False,False,False,False,False,False,"{'latitude': '41.875474', 'longitude': '-87.649707', 'human_address': '{""address"": """", ""city"": """", ""state"": """", ""zip"": """"}'}",48,14917,29,97,26
30069,W,UIC-Halsted (Forest Pk-bound),UIC-Halsted,UIC-Halsted (Blue Line),40350,True,False,True,False,False,False,False,False,False,False,"{'latitude': '41.875474', 'longitude': '-87.649707', 'human_address': '{""address"": """", ""city"": """", ""state"": """", ""zip"": """"}'}",48,14917,29,97,26
30072,N,Washington (O'Hare-bound),Washington,Washington (Blue Line),40370,False,False,True,False,False,False,False,False,False,False,"{'latitude': '41.883164', 'longitude': '-87.62944', 'human_address': '{""address"": """", ""city"": """", ""state"": """", ""zip"": """"}'}",22,14310,38,92,36
30073,S,Washington (Forest Pk-bound),Washington,Washington (Blue Line),40370,False,False,True,False,False,False,False,False,False,False,"{'latitude': '41.883164', 'longitude': '-87.62944', 'human_address': '{""address"": """", ""city"": """", ""state"": """", ""zip"": """"}'}",22,14310,38,92,36
30384,S,Washington/Wabash (Inner Loop),Washington/Wabash,"Washington/Wabash (Brown, Green, Orange, Purple & Pink lines)",41700,True,False,False,True,False,False,True,False,True,True,"{'latitude': '41.88322', 'longitude': '-87.626189', 'human_address': '{""address"": """", ""city"": """", ""state"": """", ""zip"": """"}'}",22,14310,38,580,36
30383,N,Washington/Wabash (Outer Loop),Washington/Wabash,"Washington/Wabash (Brown, Green, Orange, Purple & Pink lines)",41700,True,False,False,True,True,False,False,False,False,False,"{'latitude': '41.88322', 'longitude': '-87.626189', 'human_address': '{""address"": """", ""city"": """", ""state"": """", ""zip"": """"}'}",22,14310,38,580,36
30141,N,Washington/Wells (Inner Loop),Washington/Wells,"Washington/Wells (Brown, Orange, Purple & Pink lines)",40730,True,False,False,False,False,False,True,False,True,True,"{'latitude': '41.882695', 'longitude': '-87.63378', 'human_address': '{""address"": """", ""city"": """", ""state"": """", ""zip"": """"}'}",22,14310,38,92,36
30142,S,Washington/Wells (Outer Loop),Washington/Wells,"Washington/Wells (Brown, Orange, Purple & Pink lines)",40730,True,False,False,False,True,False,False,False,False,False,"{'latitude': '41.882695', 'longitude': '-87.63378', 'human_address': '{""address"": """", ""city"": """", ""state"": """", ""zip"": """"}'}",22,14310,38,92,36
30231,N,Wellington (Kimball-Linden-bound),Wellington,Wellington (Brown & Purple lines),41210,True,False,False,False,True,False,True,False,False,False,"{'latitude': '41.936033', 'longitude': '-87.653266', 'human_address': '{""address"": """", ""city"": """", ""state"": """", ""zip"": """"}'}",38,4449,57,681,25
30232,S,Wellington (Loop-bound),Wellington,Wellington (Brown & Purple lines),41210,True,False,False,False,True,False,True,False,False,False,"{'latitude': '41.936033', 'longitude': '-87.653266', 'human_address': '{""address"": """", ""city"": """", ""state"": """", ""zip"": """"}'}",38,4449,57,681,25
30129,N,Western (O'Hare Branch) (O'Hare-bound),Western,Western (Blue Line - O'Hare Branch),40670,True,False,True,False,False,False,False,False,False,False,"{'latitude': '41.916157', 'longitude': '-87.687364', 'human_address': '{""address"": """", ""city"": """", ""state"": """", ""zip"": """"}'}",24,22535,23,373,40
30130,S,Western (O'Hare Branch) (Forest Pk-bound),Western,Western (Blue Line - O'Hare Branch),40670,True,False,True,False,False,False,False,False,False,False,"{'latitude': '41.916157', 'longitude': '-87.687364', 'human_address': '{""address"": """", ""city"": """", ""state"": """", ""zip"": """"}'}",24,22535,23,373,40
30060,N,Western (Loop-bound),Western,Western (Orange Line),40310,True,False,False,False,False,False,False,False,False,True,"{'latitude': '41.804546', 'longitude': '-87.684019', 'human_address': '{""address"": """", ""city"": """", ""state"": """", ""zip"": """"}'}",19,14924,61,775,3
30061,S,Western (Midway-bound),Western,Western (Orange Line),40310,True,False,False,False,False,False,False,False,False,True,"{'latitude': '41.804546', 'longitude': '-87.684019', 'human_address': '{""address"": """", ""city"": """", ""state"": """", ""zip"": """"}'}",19,14924,61,775,3
30043,W,Western (Forest Pk Branch) (Forest Pk-bound),Western,Western (Blue Line - Forest Park Branch),40220,False,False,True,False,False,False,False,False,False,False,"{'latitude': '41.875478', 'longitude': '-87.688436', 'human_address': '{""address"": """", ""city"": """", ""state"": """", ""zip"": """"}'}",48,21184,29,756,23
30283,N,Western (Kimball-bound),Western,Western (Brown Line),41480,True,False,False,False,True,False,False,False,False,False,"{'latitude': '41.966163', 'longitude': '-87.688502', 'human_address': '{""address"": """", ""city"": """", ""state"": """", ""zip"": """"}'}",13,21849,6,665,18
30143,E,Western (Loop-bound),Western,Western (Pink Line),40740,True,False,False,False,False,False,False,False,True,False,"{'latitude': '41.854225', 'longitude': '-87.685129', 'human_address': '{""address"": """", ""city"": """", ""state"": """", ""zip"": """"}'}",8,14920,33,4,26
30284,S,Western (Loop-bound),Western,Western (Brown Line),41480,True,False,False,False,True,False,False,False,False,False,"{'latitude': '41.966163', 'longitude': '-87.688502', 'human_address': '{""address"": """", ""city"": """", ""state"": """", ""zip"": """"}'}",13,21849,6,665,18
30042,E,Western (Forest Pk Branch) (O'Hare-bound),Western,Western (Blue Line - Forest Park Branch),40220,False,False,True,False,False,False,False,False,False,False,"{'latitude': '41.875478', 'longitude': '-87.688436', 'human_address': '{""address"": """", ""city"": """", ""state"": """", ""zip"": """"}'}",48,21184,29,756,23
30144,W,Western (54th/Cermak-bound),Western,Western (Pink Line),40740,True,False,False,False,False,False,False,False,True,False,"{'latitude': '41.854225', 'longitude': '-87.685129', 'human_address': '{""address"": """", ""city"": """", ""state"": """", ""zip"": """"}'}",8,14920,33,4,26
30386,N,Wilson (Linden-bound),Wilson,Wilson (Red & Purple lines),40540,True,False,False,False,False,False,True,False,False,False,"{'latitude': '41.964273', 'longitude': '-87.657588', 'human_address': '{""address"": """", ""city"": """", ""state"": """", ""zip"": """"}'}",37,22616,31,241,39
30106,S,Wilson (95th-bound),Wilson,Wilson (Red & Purple lines),40540,True,True,False,False,False,False,False,False,False,False,"{'latitude': '41.964273', 'longitude': '-87.657588', 'human_address': '{""address"": """", ""city"": """", ""state"": """", ""zip"": """"}'}",37,22616,31,241,39
30385,S,Wilson (Loop-bound),Wilson,Wilson (Red & Purple lines),40540,True,False,False,False,False,False,True,False,False,False,"{'latitude': '41.964273', 'longitude': '-87.657588', 'human_address': '{""address"": """", ""city"": """", ""state"": """", ""zip"": """"}'}",37,22616,31,241,39
30105,N,Wilson (Howard-bound),Wilson,Wilson (Red & Purple lines),40540,True,True,False,False,False,False,False,False,False,False,"{'latitude': '41.964273', 'longitude': '-87.657588', 'human_address': '{""address"": """", ""city"": """", ""state"": """", ""zip"": """"}'}",37,22616,31,241,39
